BAND_NUMBER,BAND_NAME,LONGITUDE,LATITUDE,COORD_SYS
639,Nuchatlaht,-126.942083034,49.99026163100001,GCS_North_American_1983_CSRS
718,Tl’esqox,-122.50135560000001,51.92958470999997,GCS_North_American_1983_CSRS
326,McDowell Lake,-92.72837526900003,52.209850760999984,GCS_North_American_1983_CSRS
601,Westbank First Nation,-119.60531212900003,49.83981777399998,GCS_North_American_1983_CSRS
17,Woodstock,-67.577302599,46.10927922399998,GCS_North_American_1983_CSRS
600,Splatsin,-119.13869803699998,50.542514197,GCS_North_American_1983_CSRS
602,?aqam,-115.754511788,49.583492611,GCS_North_American_1983_CSRS
255,Walker Mohawk,-80.11527217999998,43.04763631499998,GCS_North_American_1983_CSRS
541,Wuikinuxv Nation,-127.23206378999998,51.68011258600001,GCS_North_American_1983_CSRS
444,Samson,-113.45504631799997,52.82038607800001,GCS_North_American_1983_CSRS
84,Montagnais de Unamen Shipu,-60.66535042800001,50.21711627799999,GCS_North_American_1983_CSRS
657,T'Sou-ke First Nation,-123.69718119100003,48.38464802200002,GCS_North_American_1983_CSRS
298,St. Theresa Point,-94.85123575300003,53.81728599600001,GCS_North_American_1983_CSRS
222,Teme Augama Anishinabek,-80.07211576399999,46.97319543499998,GCS_North_American_1983_CSRS
57,Eastmain,-78.502582389,52.24425385400002,GCS_North_American_1983_CSRS
23,Eskasoni,-60.645549018,45.930521836000025,GCS_North_American_1983_CSRS
607,Lake Babine Nation,-125.76157137799999,54.238548358,GCS_North_American_1983_CSRS
64,Timiskaming First Nation,-79.469732238,47.60723722,GCS_North_American_1983_CSRS
364,Zagime Anishinabek,-102.794069879,50.52756622999999,GCS_North_American_1983_CSRS
144,Moose Cree First Nation,-80.60051648000001,51.262632715999985,GCS_North_American_1983_CSRS
549,Tsleil-Waututh Nation,-122.98786949599997,49.31061641299999,GCS_North_American_1983_CSRS
713,Tsq'escen' First Nation,-120.99333883899999,51.77111562900001,GCS_North_American_1983_CSRS
187,Fort William,-89.25886448099999,48.35147229299997,GCS_North_American_1983_CSRS
210,Kasabonika Lake,-88.608447636,53.53225847599998,GCS_North_American_1983_CSRS
446,Tallcree Tribal Government,-115.61821879799999,58.06435237400001,GCS_North_American_1983_CSRS
539,Nuxalk Nation,-126.71570100000002,52.361897,GCS_North_American_1983_CSRS
499,Teslin Tlingit Council,-132.729859353,60.16781053,GCS_North_American_1983_CSRS
456,Sucker Creek,-116.15425945499999,55.404200961000015,GCS_North_American_1983_CSRS
195,Netmizaaggamig Nishnaabeg,-85.64421822600002,48.68611243800001,GCS_North_American_1983_CSRS
128,Naicatchewenin,-93.57314666500002,48.859542105,GCS_North_American_1983_CSRS
291,Rolling River,-99.986613939,50.453814169,GCS_North_American_1983_CSRS
141,Beausoleil,-80.17510181799997,44.821230404000005,GCS_North_American_1983_CSRS
443,Ermineskin Tribe,-113.452475333,52.83585148899999,GCS_North_American_1983_CSRS
182,Constance Lake,-84.14349199999998,49.806332,GCS_North_American_1983_CSRS
497,Ross River Dena Council,-132.45096008500002,61.97949763399998,GCS_North_American_1983_CSRS
650,Penelakut Tribe,-123.65969296100002,48.97097409700001,GCS_North_American_1983_CSRS
584,Cheam First Nation,-121.78384499999999,49.189257,GCS_North_American_1983_CSRS
221,Chapleau Cree First Nation,-83.44605133699997,47.81370357999998,GCS_North_American_1983_CSRS
759,Salt River First Nation #195,-112.23487602099999,60.10696095999998,GCS_North_American_1983_CSRS
343,"Mosquito, Grizzly Bear's Head, Lean Man First Nations",-108.24843510699998,52.49042472100001,GCS_North_American_1983_CSRS
378,Carry The Kettle,-103.46747641399998,50.35494606899999,GCS_North_American_1983_CSRS
442,Montana,-113.44118961700002,52.72783136300001,GCS_North_American_1983_CSRS
162,Hiawatha First Nation,-78.21215834600002,44.17313733399999,GCS_North_American_1983_CSRS
395,Flying Dust First Nation,-108.40432360099999,54.135418042000026,GCS_North_American_1983_CSRS
142,Albany,-81.68357500000002,52.21530899999999,GCS_North_American_1983_CSRS
383,Pasqua First Nation #79,-103.990832399,50.738827668,GCS_North_American_1983_CSRS
688,Tk'emlúps te Secwépemc,-120.29422227200001,50.67886172499999,GCS_North_American_1983_CSRS
277,Poplar River First Nation,-97.276968587,52.994313877000025,GCS_North_American_1983_CSRS
617,Tl'azt'en Nation,-124.72357284700001,54.65586883399999,GCS_North_American_1983_CSRS
180,Aundeck-Omni-Kaning,-81.99569633099998,45.95995129200003,GCS_North_American_1983_CSRS
137,Shawanaga First Nation,-80.27345221899998,45.513984273000005,GCS_North_American_1983_CSRS
308,Barren Lands,-101.66386791600002,57.88737057399999,GCS_North_American_1983_CSRS
654,Tsawout First Nation,-123.39067999999997,48.59198300000003,GCS_North_American_1983_CSRS
47,Miawpukek,-55.757336357999975,47.86409863799997,GCS_North_American_1983_CSRS
729,Skin Tyee,-125.88192534699999,53.99562441799998,GCS_North_American_1983_CSRS
83,Première Nation des Innus de Nutashkuan,-61.802421544000026,50.13365762500001,GCS_North_American_1983_CSRS
715,Lhtako Dene Nation,-122.45108942299998,52.95489435799999,GCS_North_American_1983_CSRS
67,Long Point First Nation,-78.56483626599999,47.57754755799999,GCS_North_American_1983_CSRS
615,Saik'uz First Nation,-124.11403318100002,53.94339053700003,GCS_North_American_1983_CSRS
143,Attawapiskat,-82.425159479,52.92546782400001,GCS_North_American_1983_CSRS
462,Saddle Lake Cree Nation,-111.69052082500002,53.96936144799997,GCS_North_American_1983_CSRS
682,Tahltan,-131.1797176,57.90183803999997,GCS_North_American_1983_CSRS
673,Metlakatla First Nation,-130.44422911499998,54.33694956099998,GCS_North_American_1983_CSRS
24,Pictou Landing,-62.652287,45.67438800000002,GCS_North_American_1983_CSRS
296,God's Lake First Nation,-94.50182982899997,54.54737610000001,GCS_North_American_1983_CSRS
129,Nigigoonsiminikaaning First Nation,-92.94053166600003,48.71095749699998,GCS_North_American_1983_CSRS
349,Thunderchild First Nation,-108.87464588,53.48005024399998,GCS_North_American_1983_CSRS
307,Shamattawa First Nation,-92.09889822899999,55.872834055,GCS_North_American_1983_CSRS
711,Esk'etemc,-122.23644775100001,51.78865883200001,GCS_North_American_1983_CSRS
400,English River First Nation,-107.71728255099998,55.91533674499999,GCS_North_American_1983_CSRS
723,Stswecem'c Xget'tem First Nation ,-122.20895149,51.588840213000026,GCS_North_American_1983_CSRS
2,Lennox Island,-63.85596341500002,46.599671226,GCS_North_American_1983_CSRS
676,Haisla Nation,-128.645930028,53.97547540300002,GCS_North_American_1983_CSRS
455,Sturgeon Lake Cree Nation,-117.41809620200002,55.06759463100002,GCS_North_American_1983_CSRS
33,Sheshatshiu Innu First Nation,-60.137472084000024,53.508927755,GCS_North_American_1983_CSRS
22,Potlotek First Nation,-60.76764293100001,45.683154222999974,GCS_North_American_1983_CSRS
538,Heiltsuk,-128.144426,52.161598000000026,GCS_North_American_1983_CSRS
60,Cree Nation of Wemindji,-78.80771226000002,53.000233303000016,GCS_North_American_1983_CSRS
465,Frog Lake,-110.39725969400001,53.86718714599999,GCS_North_American_1983_CSRS
285,Waywayseecappo First Nation Treaty Four - 1874,-100.88047692800001,50.67971132100001,GCS_North_American_1983_CSRS
590,Bridge River,-121.96409764999999,50.769540807,GCS_North_American_1983_CSRS
139,Chippewas of Rama First Nation,-79.35127000199998,44.646658030000026,GCS_North_American_1983_CSRS
178,Sheshegwaning,-82.83685100000002,45.93347699999998,GCS_North_American_1983_CSRS
16,Tobique,-67.69698884799999,46.78724760799997,GCS_North_American_1983_CSRS
369,Beardy's and Okemasis,-106.31100781499998,52.837420786999985,GCS_North_American_1983_CSRS
160,Alderville First Nation,-78.06328042400003,44.182690544000025,GCS_North_American_1983_CSRS
695,Lower Nicola,-120.85768153700002,50.13832773600001,GCS_North_American_1983_CSRS
390,Fishing Lake First Nation,-103.632372831,51.856531587999996,GCS_North_American_1983_CSRS
467,Fort McKay First Nation,-111.634912714,57.17950646100002,GCS_North_American_1983_CSRS
179,Sagamok Anishnawbek,-82.11021407300001,46.157512044999976,GCS_North_American_1983_CSRS
407,Witchekan Lake,-107.603272479,53.511479108,GCS_North_American_1983_CSRS
239,Neskantaga First Nation,-88.01144187900002,52.204584082999986,GCS_North_American_1983_CSRS
533,Sik-E-Dakh,-127.67994499999998,55.309552999999994,GCS_North_American_1983_CSRS
633,Quatsino,-127.57128,50.61409500000002,GCS_North_American_1983_CSRS
166,Chippewas of the Thames First Nation,-81.47338782499997,42.81898333800001,GCS_North_American_1983_CSRS
508,Ta'an Kwach'an,-135.076719717,60.73591729999998,GCS_North_American_1983_CSRS
120,Mississaugas of the Credit,-80.09514809699999,43.00001813,GCS_North_American_1983_CSRS
155,Shoal Lake No.40,-95.13574474699999,49.61399337900002,GCS_North_American_1983_CSRS
543,Fort Nelson First Nation,-122.659808387,58.77013023500001,GCS_North_American_1983_CSRS
432,Tsuut'ina Nation,-114.145948148,50.948350790000006,GCS_North_American_1983_CSRS
609,Tsay Keh Dene,-124.963151686,56.89186754399998,GCS_North_American_1983_CSRS
359,Black Lake,-105.60395299999999,59.129216934,GCS_North_American_1983_CSRS
78,Les Atikamekw de Manawan,-74.38811717099998,47.220865705999984,GCS_North_American_1983_CSRS
361,Cowessess,-102.66012619600002,50.516357226000025,GCS_North_American_1983_CSRS
387,Star Blanket Cree Nation,-103.30419087899998,50.96244286299998,GCS_North_American_1983_CSRS
275,Lake St. Martin,-98.43515634200003,51.748530459999984,GCS_North_American_1983_CSRS
556,N'Quatqua,-122.48457000000002,50.550072,GCS_North_American_1983_CSRS
290,Sioux Valley Dakota Nation,-100.48475000000002,49.85910999999999,GCS_North_American_1983_CSRS
780,Inuvik Native,-133.72981292999998,68.36100416400001,GCS_North_American_1983_CSRS
437,Alexis Nakota Sioux Nation,-114.487037294,53.72886002400003,GCS_North_American_1983_CSRS
700,Boothroyd,-121.48496459500001,49.96307075300001,GCS_North_American_1983_CSRS
726,Nee-Tahi-Buhn,-125.66736571000001,53.932956956,GCS_North_American_1983_CSRS
15,Saint Mary's,-66.63126121300002,45.971419989000026,GCS_North_American_1983_CSRS
95,Première nation de Whapmagoostui,-77.756567964,55.27710652500002,GCS_North_American_1983_CSRS
374,Mistawasis Nêhiyawak,-106.80661534199999,53.17493868399998,GCS_North_American_1983_CSRS
253,Delaware,-80.13569874400002,43.055182177999995,GCS_North_American_1983_CSRS
68,Wolf Lake,-78.79980239600002,46.99726564100001,GCS_North_American_1983_CSRS
302,Manto Sipi Cree Nation,-94.05295836800002,54.835840100999974,GCS_North_American_1983_CSRS
637,Tlowitsis Tribe,-125.20885341600001,49.909457954000004,GCS_North_American_1983_CSRS
627,Gwawaenuk Tribe,-126.82213322000001,50.92402074300003,GCS_North_American_1983_CSRS
318,O-Pipon-Na-Piwin Cree Nation,-98.93281294899998,56.77446352800001,GCS_North_American_1983_CSRS
8,Eel River Bar First Nation,-66.374178766,48.03538036100002,GCS_North_American_1983_CSRS
85,Bande des Innus de Pessamit,-68.63816469,48.938311634,GCS_North_American_1983_CSRS
433,Chiniki,-114.84655417200003,51.16979959600002,GCS_North_American_1983_CSRS
683,Iskut,-129.988221312,57.837872479,GCS_North_American_1983_CSRS
280,Ebb and Flow,-99.042831245,51.023794287999976,GCS_North_American_1983_CSRS
491,Carcross/Tagish First Nation,-134.703755596,60.170443259000024,GCS_North_American_1983_CSRS
620,Cheslatta Carrier Nation,-125.71410490199997,54.00247490700002,GCS_North_American_1983_CSRS
173,Zhiibaahaasing First Nation,-82.869482887,45.94998445099998,GCS_North_American_1983_CSRS
52,Micmacs of Gesgapegiag,-65.92120624500001,48.202097557,GCS_North_American_1983_CSRS
439,Louis Bull Tribe,-113.57214562500002,52.87472151600002,GCS_North_American_1983_CSRS
452,Kapawe'no First Nation,-116.15486274800003,55.548633945999995,GCS_North_American_1983_CSRS
760,Deh Gáh Got'ie Dene First Nation,-117.66068035199999,61.357630803999996,GCS_North_American_1983_CSRS
88,Montagnais de Pakua Shipi,-58.671430276000024,51.22769359199998,GCS_North_American_1983_CSRS
169,Oneida Nation of the Thames,-81.40975980500002,42.819425341,GCS_North_American_1983_CSRS
647,Malahat Nation,-123.52041290699998,48.613672615999974,GCS_North_American_1983_CSRS
159,Mohawks of Akwesasne,-74.64541366100002,44.99974921400002,GCS_North_American_1983_CSRS
242,Aroland,-86.95750847099998,50.23219118499998,GCS_North_American_1983_CSRS
26,Membertou,-60.195072165,46.11681824499999,GCS_North_American_1983_CSRS
199,Garden River First Nation,-84.15020002300002,46.53684933400001,GCS_North_American_1983_CSRS
684,Adams Lake,-119.701465439,50.82868548900001,GCS_North_American_1983_CSRS
135,Moose Deer Point,-80.00380678800002,45.079492034,GCS_North_American_1983_CSRS
535,Gitsegukla,-127.82949965099999,55.087509748,GCS_North_American_1983_CSRS
548,Doig River First Nation,-120.49558506099999,56.577853627000025,GCS_North_American_1983_CSRS
431,O'Chiese,-115.281361001,52.705918673999975,GCS_North_American_1983_CSRS
724,Gwa'Sala-Nakwaxda'xw,-127.49641098000001,50.73417040800001,GCS_North_American_1983_CSRS
201,Serpent River,-82.46812819899998,46.202065989000005,GCS_North_American_1983_CSRS
771,"Behdzi Ahda"" First Nation",-126.09047575900001,67.038878657,GCS_North_American_1983_CSRS
202,Thessalon,-83.415723491,46.259572522999974,GCS_North_American_1983_CSRS
273,Roseau River Anishinabe First Nation Government,-97.23978550700002,49.133229270000015,GCS_North_American_1983_CSRS
233,Apitipi Anicinapek Nation,-79.97436319500002,48.55009597100002,GCS_North_American_1983_CSRS
236,Poplar Hill,-94.30574130000002,52.09989338499997,GCS_North_American_1983_CSRS
758,Acho Dene Koe First Nation,-123.47407751600002,60.240307065000025,GCS_North_American_1983_CSRS
565,Matsqui First Nation,-122.34257889999998,49.10618189600001,GCS_North_American_1983_CSRS
232,Wahnapitae,-80.81123651600001,46.77296054200002,GCS_North_American_1983_CSRS
345,Poundmaker,-108.97431383100002,52.896113981999974,GCS_North_American_1983_CSRS
171,Chippewas of Kettle and Stony Point,-81.998814987,43.178391809000004,GCS_North_American_1983_CSRS
4,Buctouche MicMac,-64.76153414100003,46.45458610999998,GCS_North_American_1983_CSRS
696,Nicomen,-121.39824635999997,50.264437138000005,GCS_North_American_1983_CSRS
261,Brokenhead Ojibway Nation,-96.61635999999999,50.366859999999974,GCS_North_American_1983_CSRS
124,Musk-kosiminiziibing,-94.321862571,49.065832496999974,GCS_North_American_1983_CSRS
192,Biigtigong Nishnaabeg,-86.26900785200002,48.626054496999984,GCS_North_American_1983_CSRS
694,Cook's Ferry,-121.31791112799999,50.42409071999998,GCS_North_American_1983_CSRS
365,White Bear,-102.270370937,49.751758166,GCS_North_American_1983_CSRS
28,Wagmatcook,-60.91820381100001,46.073833331,GCS_North_American_1983_CSRS
363,Ochapowace,-102.39440491699997,50.46998498900001,GCS_North_American_1983_CSRS
231,Henvey Inlet First Nation,-80.561395747,45.975772740000025,GCS_North_American_1983_CSRS
604,?Akisq'nuk First Nation,-115.963991502,50.45849703499999,GCS_North_American_1983_CSRS
282,Minegoziibe Anishinabe,-100.166877462,52.04547910299999,GCS_North_American_1983_CSRS
375,Muskeg Lake Cree Nation #102,-106.87411821299997,53.00294787199999,GCS_North_American_1983_CSRS
564,Kwantlen First Nation,-122.56549429,49.17144389800001,GCS_North_American_1983_CSRS
305,Fox Lake,-94.20286700000003,56.504662999999994,GCS_North_American_1983_CSRS
327,Pauingassi First Nation,-95.37412579900001,52.15760621499999,GCS_North_American_1983_CSRS
594,Ts'kw'aylaxw First Nation,-121.81899298600001,50.885892747000014,GCS_North_American_1983_CSRS
348,Sweetgrass,-108.71592532199998,52.76546337000002,GCS_North_American_1983_CSRS
453,Lubicon Lake Band No. 453,-116.117385405,56.448399087999974,GCS_North_American_1983_CSRS
245,Tuscarora,-80.038599363,43.019170868,GCS_North_American_1983_CSRS
558,Aitchelitz,-121.98689677300001,49.15041731100001,GCS_North_American_1983_CSRS
50,Nation Wendat,-71.35719487699998,46.86262373699998,GCS_North_American_1983_CSRS
769,Wha Ti First Nation,-117.27463101000001,63.14454648899999,GCS_North_American_1983_CSRS
54,Première Nation Wolastoqiyik (Malécite) Wahsipekuk,-69.507638729,47.918029925999974,GCS_North_American_1983_CSRS
698,Shackan,-121.17537300700002,50.29338822,GCS_North_American_1983_CSRS
672,Gitxaala Nation,-130.433075895,53.796382118,GCS_North_American_1983_CSRS
168,Munsee-Delaware Nation,-81.46830082100001,42.78799233299998,GCS_North_American_1983_CSRS
475,Goodstoney,-114.84690859199998,51.16979368199998,GCS_North_American_1983_CSRS
755,Aklavik,-135.02005553599997,68.21800265600001,GCS_North_American_1983_CSRS
753,Gwichya Gwich'in,-133.743505647,67.44185087800003,GCS_North_American_1983_CSRS
774,Dechi Laot'i First Nations,-114.18502038999998,64.189867359,GCS_North_American_1983_CSRS
158,Naotkamegwanning,-93.958793749,49.40897937699998,GCS_North_American_1983_CSRS
553,Klahoose First Nation,-124.920855001,50.126019249000024,GCS_North_American_1983_CSRS
170,Walpole Island,-82.493359124,42.59193425000001,GCS_North_American_1983_CSRS
579,Leq'á:mel First Nation,-122.03433621300002,49.20400384499999,GCS_North_American_1983_CSRS
651,Qualicum First Nation,-124.61575380400001,49.39697755999998,GCS_North_American_1983_CSRS
358,Wahpeton Dakota Nation,-105.897007024,53.27662607000002,GCS_North_American_1983_CSRS
366,Cote First Nation 366,-101.90268883499999,51.643882338000026,GCS_North_American_1983_CSRS
596,Osoyoos,-119.53313507799999,49.183809240000016,GCS_North_American_1983_CSRS
341,Lucky Man,-107.23656214300001,52.988900925999985,GCS_North_American_1983_CSRS
62,Communauté anicinape de Kitcisakik,-77.30543368000002,47.61810696700002,GCS_North_American_1983_CSRS
569,Semiahmoo,-122.77774077999999,49.014531998999985,GCS_North_American_1983_CSRS
75,Cree Nation of Mistissini,-73.864326,50.41504600000002,GCS_North_American_1983_CSRS
563,Katzie,-122.67693048400002,49.20142539599999,GCS_North_American_1983_CSRS
613,Stellat'en First Nation,-124.911113623,54.06379650399998,GCS_North_American_1983_CSRS
544,Prophet River First Nation,-122.69817755000003,58.09196936500001,GCS_North_American_1983_CSRS
457,Swan River First Nation,-115.43341922100001,55.325862744000005,GCS_North_American_1983_CSRS
317,Northlands Denesuline First Nation,-101.48671022299999,58.61925824100001,GCS_North_American_1983_CSRS
328,Marcel Colomb First Nation,-100.58305945900003,56.802825212000016,GCS_North_American_1983_CSRS
283,Sandy Bay,-98.647344379,50.54932331200001,GCS_North_American_1983_CSRS
153,Anishinabe of Wauzhushk Onigum,-94.446428132,49.70772063800001,GCS_North_American_1983_CSRS
167,Moravian of the Thames,-81.87436613300002,42.563978733,GCS_North_American_1983_CSRS
312,Mosakahiken Cree Nation,-100.314820118,53.70558589000001,GCS_North_American_1983_CSRS
176,Sheguiandah,-81.91557368000002,45.88331979999998,GCS_North_American_1983_CSRS
186,Marten Falls First Nation,-85.92350697400002,51.63206220699999,GCS_North_American_1983_CSRS
631,Namgis First Nation,-126.93527443200003,50.596006165999995,GCS_North_American_1983_CSRS
299,Wasagamack First Nation,-94.92727826599997,53.89540940799998,GCS_North_American_1983_CSRS
664,Hupacasath First Nation,-124.82509047500002,49.265798440000026,GCS_North_American_1983_CSRS
164,Mohawks of the Bay of Quinte,-77.14339210700001,44.18693775000003,GCS_North_American_1983_CSRS
267,Bloodvein,-96.69692728000001,51.78341634499998,GCS_North_American_1983_CSRS
470,Chipewyan Prairie First Nation,-110.72428250299998,55.93126092799997,GCS_North_American_1983_CSRS
708,Spuzzum,-121.411473898,49.66102332600002,GCS_North_American_1983_CSRS
204,North Caribou Lake,-91.34701894400001,52.94825438700002,GCS_North_American_1983_CSRS
382,Okanese,-103.355351106,50.943890216,GCS_North_American_1983_CSRS
394,Canoe Lake Cree First Nation,-108.15735364900002,55.163594434000004,GCS_North_American_1983_CSRS
638,Ka:'yu:'k't'h'/Che:k'tles7et'h' First Nations,-127.37823364000002,50.030573781999976,GCS_North_American_1983_CSRS
265,Buffalo Point First Nation,-95.23788000000002,49.01229999999998,GCS_North_American_1983_CSRS
241,Nibinamik First Nation,-88.51612547399998,52.745514926,GCS_North_American_1983_CSRS
592,Xaxli'p,-121.86442381900002,50.73462522400001,GCS_North_American_1983_CSRS
493,Champagne,-136.48136417199999,60.78612792500002,GCS_North_American_1983_CSRS
145,Taykwa Tagamou Nation,-80.83297866100003,49.002912993999985,GCS_North_American_1983_CSRS
219,Matachewan,-80.64052514299999,48.066205516000025,GCS_North_American_1983_CSRS
495,First Nation of Nacho Nyak Dun,-135.897294542,63.59480443699999,GCS_North_American_1983_CSRS
435,Blood,-113.301199355,49.46269915099998,GCS_North_American_1983_CSRS
313,Nisichawayasihk Cree Nation,-98.885751911,55.78300161499999,GCS_North_American_1983_CSRS
235,Washagamis Bay,-94.587144421,49.71450919900002,GCS_North_American_1983_CSRS
216,Cat Lake,-91.81381131,51.719067017999976,GCS_North_American_1983_CSRS
350,Cumberland House Cree Nation,-102.28493071899999,53.941931606000026,GCS_North_American_1983_CSRS
441,Paul,-114.37070698600002,53.52379592699998,GCS_North_American_1983_CSRS
661,Hesquiaht,-126.272092305,49.368357171000014,GCS_North_American_1983_CSRS
474,Woodland Cree First Nation,-116.40428469900002,56.47167840200001,GCS_North_American_1983_CSRS
728,Yekooche First Nation,-125.082199,54.59787799999998,GCS_North_American_1983_CSRS
459,Whitefish Lake,-115.64807170799997,55.91889578399997,GCS_North_American_1983_CSRS
214,Sachigo Lake,-92.17820601199998,53.87288257,GCS_North_American_1983_CSRS
461,Mikisew Cree First Nation,-111.09968765399998,58.757061534,GCS_North_American_1983_CSRS
640,Beecher Bay,-123.60830199899999,48.337563767000006,GCS_North_American_1983_CSRS
653,Tsartlip,-123.46746639899999,48.58127233099998,GCS_North_American_1983_CSRS
644,Esquimalt,-123.43041592600002,48.44493003399998,GCS_North_American_1983_CSRS
692,Oregon Jack Creek,-121.319117044,50.61942152199998,GCS_North_American_1983_CSRS
51,Listuguj Mi'gmaq Government,-66.705116841,48.01294448099998,GCS_North_American_1983_CSRS
32,Mushuau Innu First Nation,-61.119230000000016,55.91395,GCS_North_American_1983_CSRS
72,Odanak,-72.819969174,46.073237921999976,GCS_North_American_1983_CSRS
270,Little Grand Rapids,-95.45558498100002,52.01802833800002,GCS_North_American_1983_CSRS
287,Long Plain,-98.46516606099999,49.85661370399998,GCS_North_American_1983_CSRS
398,Buffalo River Dene Nation,-108.93530929500002,55.929633249000005,GCS_North_American_1983_CSRS
357,Shoal Lake Cree Nation,-102.63231306900002,53.482988035999995,GCS_North_American_1983_CSRS
77,Conseil des Atikamekw de Wemotaci,-73.78731918,47.90259313299998,GCS_North_American_1983_CSRS
81,Naskapi Nation of Kawawachikamach,-66.762016571,54.86363312399999,GCS_North_American_1983_CSRS
376,Yellow Quill,-103.62508117200002,52.30323551700002,GCS_North_American_1983_CSRS
76,Première Nation des Pekuakamiulnuatsh,-72.22900207200001,48.57646281299998,GCS_North_American_1983_CSRS
198,Batchewana First Nation,-84.26152430600001,46.528504741999996,GCS_North_American_1983_CSRS
572,Soowahlie,-121.968958886,49.08102008499998,GCS_North_American_1983_CSRS
540,Kitasoo Xai'xais Nation,-128.520127,52.587428999999986,GCS_North_American_1983_CSRS
248,Bearfoot Onondaga,-80.04797237899999,43.02276061700002,GCS_North_American_1983_CSRS
725,Wet'suwet'en First Nation,-125.8825013,54.329514019999976,GCS_North_American_1983_CSRS
707,Skuppah,-121.57386086899999,50.187592161,GCS_North_American_1983_CSRS
370,James Smith,-104.87757488300002,53.10570600099999,GCS_North_American_1983_CSRS
409,Pheasant Rump Nakota,-102.68214499999999,49.66009500000001,GCS_North_American_1983_CSRS
71,Première Nation des Abénakis de Wôlinak,-72.42162154300001,46.328638481999974,GCS_North_American_1983_CSRS
406,Ahtahkakoop,-106.93053164399998,53.37144851099998,GCS_North_American_1983_CSRS
188,Gull Bay,-89.106557995,49.804457619000004,GCS_North_American_1983_CSRS
59,Cree Nation of Nemaska,-76.25514600000002,51.68526200000002,GCS_North_American_1983_CSRS
605,Shuswap Band,-116.00726478799999,50.51585948000002,GCS_North_American_1983_CSRS
207,Bearskin Lake,-90.96723586399997,53.924095685,GCS_North_American_1983_CSRS
545,West Moberly First Nations,-121.83092384100001,55.830633784999975,GCS_North_American_1983_CSRS
362,Kahkewistahaw,-102.53143699999998,50.491236000000015,GCS_North_American_1983_CSRS
616,Okanagan,-119.318103845,50.356222023999976,GCS_North_American_1983_CSRS
12,Oromocto First Nation,-66.46406400000001,45.853387999999995,GCS_North_American_1983_CSRS
18,Wasoqopa’q First Nation,-66.08350771800002,43.833123820000026,GCS_North_American_1983_CSRS
5,Esgenoopetitj First Nation,-65.117317592,47.208108729,GCS_North_American_1983_CSRS
582,Skawahlook First Nation,-121.60618363700002,49.356845609000004,GCS_North_American_1983_CSRS
536,Gitwangak,-128.05582700000002,55.10239999999999,GCS_North_American_1983_CSRS
254,Lower Mohawk,-80.11908300599998,43.04322133199997,GCS_North_American_1983_CSRS
194,Animbiigoo Zaagi'igan Anishinaabek,-87.959058492,49.602615034999985,GCS_North_American_1983_CSRS
229,Chapleau Ojibway,-83.393917343,47.81600843799998,GCS_North_American_1983_CSRS
699,Nooaitch,-121.03734459999998,50.15397819999998,GCS_North_American_1983_CSRS
9,Fort Folly,-64.50283827999999,45.89065632400002,GCS_North_American_1983_CSRS
353,Lac La Ronge,-105.30381046899998,55.098885457999984,GCS_North_American_1983_CSRS
717,Yunesit'in Government,-123.13992751699999,51.92683274500001,GCS_North_American_1983_CSRS
591,Cayoose Creek,-121.934060123,50.67430382499998,GCS_North_American_1983_CSRS
257,Upper Mohawk,-80.170455113,43.068589965,GCS_North_American_1983_CSRS
625,Kwikwasut'inuxw Haxwa'mis,-126.60063326300002,50.69639678599998,GCS_North_American_1983_CSRS
702,Whispering Pines/Clinton,-120.24079334800001,50.986696924,GCS_North_American_1983_CSRS
622,Campbell River,-125.24791935299999,50.031657403,GCS_North_American_1983_CSRS
689,Skwlax te Secwepemculecw,-119.59965332500002,50.870243534999986,GCS_North_American_1983_CSRS
154,Iskatewizaagegan #39 Independent First Nation,-95.09931025399999,49.62564713199998,GCS_North_American_1983_CSRS
294,Gambler First Nation,-101.382375992,50.59467312200002,GCS_North_American_1983_CSRS
367,Keeseekoose,-101.90919396599998,51.71897987800003,GCS_North_American_1983_CSRS
304,York Factory First Nation,-96.09898778299998,56.08745209800003,GCS_North_American_1983_CSRS
56,Waswanipi,-75.95910099999998,49.702264000000014,GCS_North_American_1983_CSRS
531,Gitanmaax,-127.67695947599998,55.25523537999999,GCS_North_American_1983_CSRS
440,Enoch Cree Nation #440,-113.75554184100002,53.50195499900002,GCS_North_American_1983_CSRS
218,Dokis,-80.03238071599998,46.12954920599998,GCS_North_American_1983_CSRS
550,Musqueam,-123.19920000000002,49.224940000000004,GCS_North_American_1983_CSRS
619,Ts'il Kaz Koh,-125.77111295499998,54.236657095,GCS_North_American_1983_CSRS
606,Lower Kootenay,-116.516265401,49.066742627999986,GCS_North_American_1983_CSRS
86,Innue Essipit,-69.39863023499998,48.34323576000003,GCS_North_American_1983_CSRS
220,Nipissing First Nation,-79.87386116099998,46.32341589499998,GCS_North_American_1983_CSRS
555,Squamish,-123.13217004299997,49.323715377999974,GCS_North_American_1983_CSRS
658,Pacheedaht First Nation,-124.407701127,48.576773608999986,GCS_North_American_1983_CSRS
648,Snuneymuxw First Nation,-123.93027730699998,49.15166708999999,GCS_North_American_1983_CSRS
309,Chemawawin Cree Nation,-99.80756012799998,53.103010869,GCS_North_American_1983_CSRS
6,Madawaska Maliseet First Nation,-68.312274624,47.36236683499999,GCS_North_American_1983_CSRS
125,Anishnaabeg of Naongashiing,-94.31178508400001,49.12470348099998,GCS_North_American_1983_CSRS
191,Pays Plat,-87.55723745199998,48.88316696200002,GCS_North_American_1983_CSRS
504,Dease River,-129.290546549,59.29492164599998,GCS_North_American_1983_CSRS
534,Hagwilget Village Council,-127.60030056800002,55.253538461000005,GCS_North_American_1983_CSRS
660,Tla-o-qui-aht First Nations,-125.91207178399998,49.17334823499999,GCS_North_American_1983_CSRS
720,Nazko First Nation,-123.58354609999998,52.94372677000001,GCS_North_American_1983_CSRS
368,The Key First Nation,-102.12901701700002,51.78287422400001,GCS_North_American_1983_CSRS
709,?Esdilagh First Nation,-122.49677595399999,52.56284492100002,GCS_North_American_1983_CSRS
492,Little Salmon/Carmacks First Nation,-136.288864763,62.096167492000006,GCS_North_American_1983_CSRS
687,Skeetchestn,-120.95476390099998,50.83970502,GCS_North_American_1983_CSRS
200,Mississauga,-83.004772678,46.19645596999999,GCS_North_American_1983_CSRS
478,Peerless Trout First Nation,-114.58064059999998,56.67960289000001,GCS_North_American_1983_CSRS
269,Peguis,-97.55858999999998,51.30547999999999,GCS_North_American_1983_CSRS
344,Onion Lake Cree Nation,-109.96397754999998,53.71264565600001,GCS_North_American_1983_CSRS
665,Tseshaht,-124.84891900000002,49.267224999999996,GCS_North_American_1983_CSRS
293,Swan Lake First Nation,-98.84115000000003,49.39719600000001,GCS_North_American_1983_CSRS
496,Vuntut Gwitchin First Nation,-139.827821648,67.57039011400002,GCS_North_American_1983_CSRS
237,Deer Lake,-94.06542999999999,52.63263999999998,GCS_North_American_1983_CSRS
385,Piapot,-104.427101688,50.77705142899998,GCS_North_American_1983_CSRS
670,Skidegate,-131.99038140099998,53.269561513999975,GCS_North_American_1983_CSRS
712,Tl'etinqox Government,-123.17637874799999,52.01698364700002,GCS_North_American_1983_CSRS
7,Natoaganeg,-65.62838869199999,46.96458456200003,GCS_North_American_1983_CSRS
379,Little Black Bear,-103.31634607900003,51.00464079300002,GCS_North_American_1983_CSRS
213,Muskrat Dam Lake,-91.77994766299997,53.404019213000026,GCS_North_American_1983_CSRS
577,Tsawwassen First Nation,-123.09769631400002,49.037882663000005,GCS_North_American_1983_CSRS
134,Wahta Mohawk,-79.77738262700001,44.99468503200001,GCS_North_American_1983_CSRS
675,Gitga'at First Nation,-129.25185704400002,53.42530438,GCS_North_American_1983_CSRS
704,Kanaka Bar,-121.5620351,50.11217696599999,GCS_North_American_1983_CSRS
751,Teetl'it Gwich'in Band Council,-134.88604393999998,67.43745173399998,GCS_North_American_1983_CSRS
25,SIPEKNE'KATIK,-63.48891481700002,45.09517472099998,GCS_North_American_1983_CSRS
560,Kwikwetlem First Nation,-122.805957041,49.230160911999974,GCS_North_American_1983_CSRS
641,Stz'uminus First Nation,-123.77211133499998,48.99302393400001,GCS_North_American_1983_CSRS
306,Tataskweyak Cree Nation,-96.09783055899999,56.244495228000005,GCS_North_American_1983_CSRS
346,Red Pheasant,-108.17961851899997,52.45789347499999,GCS_North_American_1983_CSRS
678,Nisga'a Village of Laxgalt'sap,-129.58371870000002,55.03529200999998,GCS_North_American_1983_CSRS
392,Muskowekwan,-104.00444265300001,51.32707481199998,GCS_North_American_1983_CSRS
636,Dzawada'enuxw First Nation,-126.180201254,50.977275534,GCS_North_American_1983_CSRS
340,Little Pine,-109.058693936,52.91574110099998,GCS_North_American_1983_CSRS
163,Algonquins of Pikwakanagan First Nation,-77.250083093,45.575494461000005,GCS_North_American_1983_CSRS
301,Bunibonibee Cree Nation,-95.26475890500001,54.949823501000026,GCS_North_American_1983_CSRS
354,Montreal Lake,-105.78661360400002,54.05173659600001,GCS_North_American_1983_CSRS
122,Chippewas of Nawash First Nation,-81.026822874,44.90303172199998,GCS_North_American_1983_CSRS
773,Gameti First Nation,-117.35238862699998,64.11287352599999,GCS_North_American_1983_CSRS
19,Paqtnkek Mi'kmaw Nation,-61.738297515,45.60157993399997,GCS_North_American_1983_CSRS
303,Sayisi Dene First Nation,-98.486485431,58.71612357599997,GCS_North_American_1983_CSRS
674,Lax Kw'alaams,-130.43314051200002,54.558568174000015,GCS_North_American_1983_CSRS
391,George Gordon First Nation,-104.30195932100003,51.29625231900002,GCS_North_American_1983_CSRS
451,Duncan's First Nation,-117.86502901199998,56.102080537999996,GCS_North_American_1983_CSRS
730,Binche Whut'en,-124.49415699999997,54.56624900000003,GCS_North_American_1983_CSRS
3,Elsipogtog First Nation,-64.985644944,46.586149044000024,GCS_North_American_1983_CSRS
351,Fond du Lac,-107.19543519000001,59.321366884999975,GCS_North_American_1983_CSRS
595,Tsal'alh,-122.21762754999997,50.728101330000015,GCS_North_American_1983_CSRS
278,Norway House Cree Nation,-97.77289370900002,53.98994974599998,GCS_North_American_1983_CSRS
151,Northwest Angle No.33,-95.015853676,49.363146029000006,GCS_North_American_1983_CSRS
530,Witset First Nation,-127.33091458000001,55.02156626599998,GCS_North_American_1983_CSRS
227,Flying Post,-82.07312484900001,48.553285390999974,GCS_North_American_1983_CSRS
324,Wuskwi Sipihk First Nation,-100.87051545000003,52.509069282999974,GCS_North_American_1983_CSRS
196,Bingwi Neyaashi Anishinaabek,-88.13387699999998,49.461806000000024,GCS_North_American_1983_CSRS
693,Coldwater,-120.85922534000002,50.03106781700001,GCS_North_American_1983_CSRS
655,Tseycum,-123.45134436199999,48.66603948599999,GCS_North_American_1983_CSRS
389,Day Star,-104.22243957,51.506490998000004,GCS_North_American_1983_CSRS
189,Lac Des Mille Lacs,-90.32977499999998,48.88743499999998,GCS_North_American_1983_CSRS
69,Mohawks of Kanesatake,-74.12969910300001,45.48290867600002,GCS_North_American_1983_CSRS
666,Toquaht,-125.374463144,48.996223235,GCS_North_American_1983_CSRS
754,Deline First Nation,-123.42549195599997,65.18855685300002,GCS_North_American_1983_CSRS
262,Fort Alexander,-96.30951946200003,50.611287522,GCS_North_American_1983_CSRS
53,La Nation Micmac de Gespeg,-64.62331665200003,48.91804597599997,GCS_North_American_1983_CSRS
562,Skatin,-122.41039733500003,49.93829582500001,GCS_North_American_1983_CSRS
249,Upper Cayuga,-80.07489044099998,43.032585728000015,GCS_North_American_1983_CSRS
566,New Westminster,-123.02397400000001,49.23632300000003,GCS_North_American_1983_CSRS
244,Bay of Quinte Mohawk,-80.12939795300002,43.07184682399998,GCS_North_American_1983_CSRS
209,Kitchenuhmaykoosib Inninuwug,-89.87738822900002,53.82306089399998,GCS_North_American_1983_CSRS
271,Lake Manitoba,-98.607003571,50.94717514199999,GCS_North_American_1983_CSRS
397,Ministikwan Lake Cree Nation,-109.66956827400003,54.05012532500001,GCS_North_American_1983_CSRS
589,Yale First Nation,-121.42597623799998,49.562491249999994,GCS_North_American_1983_CSRS
685,Ashcroft,-121.322474811,50.72038688499998,GCS_North_American_1983_CSRS
175,Wikwemikong,-81.72808962300002,45.797541724999974,GCS_North_American_1983_CSRS
386,Standing Buffalo,-103.89487181599998,50.80160160499997,GCS_North_American_1983_CSRS
408,Ocean Man,-102.934109594,49.824416969000026,GCS_North_American_1983_CSRS
371,Muskoday First Nation,-105.49059693999999,53.088398036,GCS_North_American_1983_CSRS
377,Kinistin Saulteaux Nation,-104.21911301400002,52.609673249000025,GCS_North_American_1983_CSRS
230,Whitefish River,-81.77602623299998,46.06616387600002,GCS_North_American_1983_CSRS
323,War Lake First Nation,-95.59650719400003,56.06842955399998,GCS_North_American_1983_CSRS
667,Uchucklesaht,-125.03810744399999,49.020482345999994,GCS_North_American_1983_CSRS
184,Long Lake No.58 First Nation,-86.57311497199998,49.78684543700001,GCS_North_American_1983_CSRS
212,Kingfisher,-89.82647068900002,53.02911728999999,GCS_North_American_1983_CSRS
656,Songhees Nation,-123.42815200000001,48.441430000000025,GCS_North_American_1983_CSRS
559,Sts'ailes,-121.91417164799998,49.298510556,GCS_North_American_1983_CSRS
403,Birch Narrows First Nation,-108.68887508199998,56.47223511499999,GCS_North_American_1983_CSRS
561,Douglas,-122.20108509900001,49.75599261999997,GCS_North_American_1983_CSRS
447,Little Red River Cree Nation,-114.53346344900001,58.46491986900003,GCS_North_American_1983_CSRS
223,Missanabie Cree,-84.08399181700003,48.31169790299998,GCS_North_American_1983_CSRS
34,Qalipu Mi'kmaq First Nation,-57.937399024,48.950310763000004,GCS_North_American_1983_CSRS
434,Sunchild First Nation,-115.339955245,52.699762901999975,GCS_North_American_1983_CSRS
286,Keeseekoowenin,-100.2995525,50.53910135000001,GCS_North_American_1983_CSRS
224,Atikameksheng Anishnawbek,-81.17876023000002,46.397979021000026,GCS_North_American_1983_CSRS
646,Lyackson,-123.69611238300001,48.87397121999999,GCS_North_American_1983_CSRS
165,Caldwell,-82.59741885199998,42.05280588900001,GCS_North_American_1983_CSRS
63,Nation Anishnabe du Lac Simon,-77.35256414600002,48.05807239500001,GCS_North_American_1983_CSRS
193,Red Rock,-88.24532269399998,49.028907935999996,GCS_North_American_1983_CSRS
610,Kwadacha Nation,-125.63028217700003,57.42367324999998,GCS_North_American_1983_CSRS
679,Nisga'a Village of Gitwinksihlkw,-129.220901072,55.19252230400002,GCS_North_American_1983_CSRS
266,Berens River,-96.967482808,52.343128623999974,GCS_North_American_1983_CSRS
136,Wasauksing First Nation,-80.05698523000001,45.326074328999994,GCS_North_American_1983_CSRS
314,Sapotaweyak Cree Nation,-100.69229904999997,52.74473334999999,GCS_North_American_1983_CSRS
575,Tzeachten,-121.95397600000001,49.11185599999999,GCS_North_American_1983_CSRS
315,Opaskwayak Cree Nation,-101.27135944600002,53.83770330599998,GCS_North_American_1983_CSRS
642,Cowichan,-123.709288442,48.776217696,GCS_North_American_1983_CSRS
247,Onondaga Clear Sky,-80.03064458400002,43.016416057000015,GCS_North_American_1983_CSRS
360,Sturgeon Lake First Nation,-106.12601373500002,53.38638850000001,GCS_North_American_1983_CSRS
11,Bilijk,-66.85089406700001,45.949785383000005,GCS_North_American_1983_CSRS
246,Oneida,-80.14823630400002,43.05979834200002,GCS_North_American_1983_CSRS
297,Garden Hill First Nations,-94.65354761399999,53.87277926500002,GCS_North_American_1983_CSRS
234,Wawakapewin,-89.14168179900003,53.452378425999996,GCS_North_American_1983_CSRS
494,Tr'ondëk Hwëch'in,-139.43120296400002,64.06492833300001,GCS_North_American_1983_CSRS
770,Jean Marie River First Nation,-120.62513453700001,61.525364535999984,GCS_North_American_1983_CSRS
274,Little Saskatchewan,-98.560381226,51.683319805999986,GCS_North_American_1983_CSRS
501,Taku River Tlingit,-133.65868905899998,59.50581739500001,GCS_North_American_1983_CSRS
215,Fort Severn,-87.63660435499997,55.99047145999998,GCS_North_American_1983_CSRS
722,Ulkatcho,-125.306675676,52.46728594699999,GCS_North_American_1983_CSRS
498,Selkirk First Nation,-136.572935664,62.82386585500001,GCS_North_American_1983_CSRS
752,Fort Good Hope,-128.62003832,66.260302502,GCS_North_American_1983_CSRS
767,Sambaa K'e First Nation,-121.242439913,60.44262060800003,GCS_North_American_1983_CSRS
251,Konadaha Seneca,-80.08869058599998,43.03765629200001,GCS_North_American_1983_CSRS
635,Da'naxda'xw First Nation,-126.597306,50.59649300000001,GCS_North_American_1983_CSRS
671,Nisga'a Village of Gingolx,-129.95733343900002,54.994412418000024,GCS_North_American_1983_CSRS
205,Lac Seul,-92.30026238200003,50.29259800199998,GCS_North_American_1983_CSRS
764,Lutsel K'e Dene First Nation,-110.73870802599998,62.404721438000024,GCS_North_American_1983_CSRS
721,Lhoosk'uz Dene Nation,-124.49016126700002,53.087346002000004,GCS_North_American_1983_CSRS
662,Ditidaht,-124.66970174199997,48.809278516999996,GCS_North_American_1983_CSRS
643,Ts'uubaa-asatx,-124.069746544,48.82604956,GCS_North_American_1983_CSRS
393,Kawacatoose,-104.404392084,51.48178573299998,GCS_North_American_1983_CSRS
490,Aishihik,-137.506689499,61.599170404999995,GCS_North_American_1983_CSRS
217,Wunnumin,-89.29634945499998,52.93410002500002,GCS_North_American_1983_CSRS
445,Beaver First Nation,-116.27477797300003,58.45579012799999,GCS_North_American_1983_CSRS
578,Sumas First Nation,-122.19464527899999,49.05527836099998,GCS_North_American_1983_CSRS
502,Liard First Nation,-128.71654674299998,60.06601545000001,GCS_North_American_1983_CSRS
310,Misipawistik Cree Nation,-99.256899675,53.179247551,GCS_North_American_1983_CSRS
325,Keewaywin First Nation,-92.79732290200002,53.00401908499998,GCS_North_American_1983_CSRS
373,One Arrow First Nation,-106.02920991399998,52.74048577399998,GCS_North_American_1983_CSRS
583,Chawathil,-121.552604417,49.369822294000016,GCS_North_American_1983_CSRS
355,Peter Ballantyne Cree Nation,-102.93417173,55.17239673400002,GCS_North_American_1983_CSRS
13,Pabineau,-65.66912270699999,47.533274151,GCS_North_American_1983_CSRS
554,Tla'amin Nation,-124.617391,49.90059000000002,GCS_North_American_1983_CSRS
264,Fisher River,-97.38721231599999,51.437889412000004,GCS_North_American_1983_CSRS
766,Nahanni Butte,-123.38322783699999,61.035632529,GCS_North_American_1983_CSRS
506,White River First Nation,-140.875326681,62.38375615699999,GCS_North_American_1983_CSRS
150,Wabaseemoong Independent Nations,-94.94315428099998,50.12991664399999,GCS_North_American_1983_CSRS
652,Pauquachin,-123.45845692199998,48.627153455999974,GCS_North_American_1983_CSRS
634,Ehattesaht,-126.85898918599997,49.98514634200001,GCS_North_American_1983_CSRS
430,Siksika Nation,-113.05083249199998,50.859133412999995,GCS_North_American_1983_CSRS
27,Millbrook,-63.29274886799999,45.333781019000014,GCS_North_American_1983_CSRS
258,Ojibway Nation of Saugeen,-90.65837514100002,50.421152377,GCS_North_American_1983_CSRS
157,Wabigoon Lake Ojibway Nation,-92.52151556799998,49.625475617999996,GCS_North_American_1983_CSRS
268,Kinonjeoshtegon First Nation,-97.3109533,51.91709498300003,GCS_North_American_1983_CSRS
597,Penticton,-119.64476284199998,49.49136807999997,GCS_North_American_1983_CSRS
311,Mathias Colomb,-101.31689699999998,55.74205499999999,GCS_North_American_1983_CSRS
614,Nak'azdli Whut'en,-124.250154361,54.43845786100002,GCS_North_American_1983_CSRS
623,We Wai Kai Nation,-125.290563389,50.01861443400003,GCS_North_American_1983_CSRS
680,Kitselas,-128.41069220000003,54.60834741000002,GCS_North_American_1983_CSRS
537,Gitanyow,-128.06949200000003,55.265354,GCS_North_American_1983_CSRS
263,Hollow Water,-96.30228976400002,51.192384679999975,GCS_North_American_1983_CSRS
464,Cold Lake First Nations,-110.236182461,54.337050706000014,GCS_North_American_1983_CSRS
130,Rainy River First Nations,-93.912642108,48.637248177000004,GCS_North_American_1983_CSRS
405,Pelican Lake,-107.78395698999998,53.685639244000015,GCS_North_American_1983_CSRS
240,Webequie,-87.35969665800002,52.982823756000016,GCS_North_American_1983_CSRS
156,Wabauskang First Nation,-93.17098308099997,50.381459544999984,GCS_North_American_1983_CSRS
260,Black River First Nation,-96.30991,50.830359999999985,GCS_North_American_1983_CSRS
384,Peepeekisis Cree Nation No.81,-103.33585423599999,50.86623960999998,GCS_North_American_1983_CSRS
557,Lil'wat Nation,-122.72133400000001,50.31819300000001,GCS_North_American_1983_CSRS
140,Mississaugas of Scugog Island First Nation,-78.88060509500002,44.19397308600003,GCS_North_American_1983_CSRS
612,Nadleh Whuten,-124.60768604499998,54.076082842999995,GCS_North_American_1983_CSRS
356,Red Earth,-102.861137353,53.49095235300001,GCS_North_American_1983_CSRS
663,Huu-ay-aht First Nations,-125.12715556699999,48.802078540000025,GCS_North_American_1983_CSRS
507,Champagne and Aishihik First Nations,-137.49676516199997,60.759402056,GCS_North_American_1983_CSRS
463,Athabasca Chipewyan First Nation,-111.03015506700001,58.54820497700001,GCS_North_American_1983_CSRS
719,Williams Lake First Nation,-122.01664904,52.11818620899999,GCS_North_American_1983_CSRS
300,Red Sucker Lake,-93.56888948400001,54.15616754199999,GCS_North_American_1983_CSRS
152,Animakee Wa Zhing #37,-93.97296119399999,49.394713851999995,GCS_North_American_1983_CSRS
82,Les Innus de Ekuanitshit,-64.03004154400003,50.29146227000001,GCS_North_American_1983_CSRS
74,Algonquins of Barriere Lake,-76.708010489,47.25440384299998,GCS_North_American_1983_CSRS
10,Indian Island,-64.79453807200002,46.691010257000016,GCS_North_American_1983_CSRS
399,Big Island Lake Cree Nation,-109.626874262,54.40843556200002,GCS_North_American_1983_CSRS
190,Whitesand,-89.04324887899998,50.30992583,GCS_North_American_1983_CSRS
292,Tootinaowaziibeeng Treaty Reserve,-100.97273600599999,51.22785194699998,GCS_North_American_1983_CSRS
148,Eagle Lake,-93.05714124600001,49.73816440799999,GCS_North_American_1983_CSRS
272,Pinaymootang First Nation,-98.68369137299999,51.573787418999984,GCS_North_American_1983_CSRS
630,Mowachaht/Muchalaht,-126.07212658100002,49.810980524,GCS_North_American_1983_CSRS
471,Stoney,-114.84619655699998,51.170100502000025,GCS_North_American_1983_CSRS
532,Kispiox,-127.69825834199997,55.34889125699999,GCS_North_American_1983_CSRS
401,Clearwater River Dene,-109.49981389700002,56.528199685999994,GCS_North_American_1983_CSRS
203,Mishkeegogamang,-90.22949236699998,51.092135858999995,GCS_North_American_1983_CSRS
703,High Bar,-122.01808212899999,51.11304299400001,GCS_North_American_1983_CSRS
448,Dene Tha',-118.6894777,58.70245186300002,GCS_North_American_1983_CSRS
454,Sawridge First Nation,-114.83971068199997,55.297587670999974,GCS_North_American_1983_CSRS
438,Alexander,-113.92055456999998,53.80385891499998,GCS_North_American_1983_CSRS
80,Innu Takuaikan Uashat Mak Mani-Utenam,-66.39957675599999,50.22610498199998,GCS_North_American_1983_CSRS
127,Gakijiwanong Anishinaabe Nation,-92.16116480300002,48.37421657099998,GCS_North_American_1983_CSRS
542,Saulteau First Nations,-121.65300372899998,55.852219194999975,GCS_North_American_1983_CSRS
568,Sq'éwlets,-122.00245604999998,49.2359419,GCS_North_American_1983_CSRS
546,Halfway River First Nation,-121.964969,56.51336700000002,GCS_North_American_1983_CSRS
705,Lytton,-121.57755500000002,50.23748699999999,GCS_North_American_1983_CSRS
21,Bear River,-65.63366591599998,44.55962670700001,GCS_North_American_1983_CSRS
147,Niisaachewan Anishinaabe Nation,-94.54344007499998,49.89244760999998,GCS_North_American_1983_CSRS
588,Union Bar First Nation,-121.43446694099998,49.43738796399998,GCS_North_American_1983_CSRS
288,Dakota Plains,-98.523042686,49.81758680299998,GCS_North_American_1983_CSRS
598,Lower Similkameen,-119.72379803799998,49.05143215700002,GCS_North_American_1983_CSRS
581,Seabird Island,-121.73039671599997,49.25512171700001,GCS_North_American_1983_CSRS
79,Atikamekw d'Opitciwan,-74.93796020299999,48.659340611000005,GCS_North_American_1983_CSRS
225,Michipicoten,-84.92716447700002,47.96115799500001,GCS_North_American_1983_CSRS
608,Takla Nation,-125.97533600000003,55.48235599999998,GCS_North_American_1983_CSRS
436,Piikani Nation,-113.74895254299997,49.54873862400001,GCS_North_American_1983_CSRS
587,Shxw'ow'hamel First Nation,-121.60666464899998,49.34302591900001,GCS_North_American_1983_CSRS
284,Birdtail Sioux,-101.14924681299999,50.26621875699999,GCS_North_American_1983_CSRS
469,Heart Lake,-111.539285732,55.029810450000014,GCS_North_American_1983_CSRS
772,West Point First Nation,-115.744969314,60.85471708799997,GCS_North_American_1983_CSRS
402,Waterhen Lake,-108.40883213000001,54.522111182,GCS_North_American_1983_CSRS
757,Liidlii Kue First Nation,-121.31365948000001,61.81777527700001,GCS_North_American_1983_CSRS
668,Ucluelet First Nation,-125.52596562000002,48.936417171000016,GCS_North_American_1983_CSRS
551,shishálh Nation,-123.74937044699999,49.47384586300001,GCS_North_American_1983_CSRS
404,Big River,-107.11076611099998,53.57479459699999,GCS_North_American_1983_CSRS
585,Popkum First Nation,-121.71946059200002,49.20192788700001,GCS_North_American_1983_CSRS
70,Mohawks of Kahnawá:ke,-73.676294499,45.413945125,GCS_North_American_1983_CSRS
458,Bigstone Cree Nation,-113.78296003700001,55.94642528000003,GCS_North_American_1983_CSRS
347,Saulteaux,-108.32945558699998,53.12555561400001,GCS_North_American_1983_CSRS
691,Simpcw First Nation,-120.14902639500002,51.316895450000004,GCS_North_American_1983_CSRS
573,Sqwá First Nation,-121.97225841099998,49.17809653500001,GCS_North_American_1983_CSRS
716,Xatsull First Nation,-122.14478211400001,52.28044891899998,GCS_North_American_1983_CSRS
259,Slate Falls Nation,-91.61823713500002,51.14937596599998,GCS_North_American_1983_CSRS
211,Sandy Lake,-93.327657085,53.06308804700001,GCS_North_American_1983_CSRS
681,Kitsumkalum,-128.667329,54.522887000000026,GCS_North_American_1983_CSRS
381,Muscowpetung,-104.283879894,50.77598386599999,GCS_North_American_1983_CSRS
172,Aamjiwnaang,-82.41605569799998,42.93599504000002,GCS_North_American_1983_CSRS
279,O-Chi-Chak-Ko-Sipi First Nation,-99.25775769900002,51.503493166,GCS_North_American_1983_CSRS
174,Magnetawan,-80.50075678899998,45.769407892000004,GCS_North_American_1983_CSRS
677,Nisga'a Village of New Aiyansh,-129.07932949999997,55.206588580000016,GCS_North_American_1983_CSRS
580,Kwaw-kwaw-Apilt,-121.97524569900003,49.16684968200002,GCS_North_American_1983_CSRS
123,Saugeen,-81.328698933,44.513032640999995,GCS_North_American_1983_CSRS
131,Ojibways of Onigaming First Nation,-93.926459093,49.17266995599999,GCS_North_American_1983_CSRS
181,M'Chigeeng First Nation,-82.161714082,45.825261103,GCS_North_American_1983_CSRS
611,Lheidli T'enneh,-122.61430148599999,54.00883352699998,GCS_North_American_1983_CSRS
756,Pehdzeh Ki First Nation,-123.46666699999997,63.22666700000002,GCS_North_American_1983_CSRS
603,Yaqit ?a·knuqli‘it First Nation,-115.08190541699997,49.09333390799998,GCS_North_American_1983_CSRS
686,Bonaparte First Nation,-121.385367836,50.840803757,GCS_North_American_1983_CSRS
61,The Crees of the Waskaganish First Nation,-78.75335760500002,51.486193851999985,GCS_North_American_1983_CSRS
1,Abegweit,-62.902618674999985,46.357927527000015,GCS_North_American_1983_CSRS
132,Seine River First Nation,-92.42806349699998,48.718897486,GCS_North_American_1983_CSRS
552,Homalco,-125.24360842200002,49.95163973799998,GCS_North_American_1983_CSRS
645,Halalt,-123.696124543,48.87399504199999,GCS_North_American_1983_CSRS
571,Skowkale,-121.94057926099998,49.141712688999974,GCS_North_American_1983_CSRS
73,Kitigan Zibi Anishinabeg,-75.982774415,46.363132243999985,GCS_North_American_1983_CSRS
316,Dauphin River,-98.06537757799998,51.963173772000005,GCS_North_American_1983_CSRS
30,Glooscap First Nation,-64.235019626,45.04177449299999,GCS_North_American_1983_CSRS
276,Cross Lake Band of Indians,-97.78839389000001,54.62150580399998,GCS_North_American_1983_CSRS
89,Oujé-Bougoumou Cree Nation,-74.81979604899999,49.923534698000026,GCS_North_American_1983_CSRS
208,Pikangikum,-93.994650364,51.800506772000006,GCS_North_American_1983_CSRS
576,Yakweakwioose,-121.936925503,49.13236783799999,GCS_North_American_1983_CSRS
593,T'it'q'et,-121.94564077199999,50.677351628999986,GCS_North_American_1983_CSRS
628,Kwiakah,-125.15776038400003,50.42268599200003,GCS_North_American_1983_CSRS
29,We'koqma'q L’nue’kati,-61.13772355399999,45.97141526600001,GCS_North_American_1983_CSRS
149,Grassy Narrows First Nation,-93.99200620800002,50.153775612000004,GCS_North_American_1983_CSRS
295,Dakota Tipi,-98.340568593,49.948118486,GCS_North_American_1983_CSRS
574,Squiala First Nation,-121.979421,49.15801399999998,GCS_North_American_1983_CSRS
252,Niharondasa Seneca,-80.101896184,43.04278014800002,GCS_North_American_1983_CSRS
121,Six Nations of the Grand River,-80.11751506500002,43.07040710899997,GCS_North_American_1983_CSRS
763,Yellowknives Dene First Nation,-114.37564662300002,62.455058871999995,GCS_North_American_1983_CSRS
500,Kwanlin Dun First Nation,-135.10815497800002,60.71905901600002,GCS_North_American_1983_CSRS
503,Kluane First Nation,-138.99016501300002,61.356458627999984,GCS_North_American_1983_CSRS
20,Annapolis Valley,-64.65166566099998,45.066607558999976,GCS_North_American_1983_CSRS
710,Tŝideldel First Nation,-123.95247317899998,52.138891667999985,GCS_North_American_1983_CSRS
133,Mitaanjigamiing First Nation,-93.38618264299998,48.711036999999976,GCS_North_American_1983_CSRS
138,Chippewas of Georgina Island,-79.31287309700002,44.372844095000005,GCS_North_American_1983_CSRS
289,Canupawakpa Dakota First Nation,-100.94536446000001,49.620452949000025,GCS_North_American_1983_CSRS
183,Eabametoong First Nation,-87.90617620900002,51.55541821999998,GCS_North_American_1983_CSRS
65,Kebaowek First Nation,-78.98506200000003,46.785585000000026,GCS_North_American_1983_CSRS
765,Dog Rib Rae,-116.05000770700002,62.83002415499999,GCS_North_American_1983_CSRS
701,Boston Bar First Nation,-121.45140440400002,49.87707745099999,GCS_North_American_1983_CSRS
450,Driftpile Cree Nation,-115.78249373800003,55.34323310100001,GCS_North_American_1983_CSRS
669,Old Massett Village Council,-132.17503032399998,54.03441410200003,GCS_North_American_1983_CSRS
690,Neskonlith,-119.730580052,50.77333253400002,GCS_North_American_1983_CSRS
762,Deninu K'ue First Nation,-113.673771235,61.17241035799998,GCS_North_American_1983_CSRS
697,Upper Nicola,-120.28242517000001,50.14198945099997,GCS_North_American_1983_CSRS
659,Ahousaht,-126.05609132400002,49.278057096,GCS_North_American_1983_CSRS
706,Siska,-121.57155491700001,50.13634618499998,GCS_North_American_1983_CSRS
632,Tlatlasikwala,-127.93998873999999,50.922475254999995,GCS_North_American_1983_CSRS
714,Xeni Gwet'in First Nations Government,-124.09563063000002,51.41537033200001,GCS_North_American_1983_CSRS
750,Tulita Dene,-125.57636479000001,64.900584552,GCS_North_American_1983_CSRS
618,McLeod Lake,-123.04583541699998,54.98456397799998,GCS_North_American_1983_CSRS
449,Horse Lake First Nation,-119.69369397399998,55.35171627400001,GCS_North_American_1983_CSRS
238,North Spirit Lake,-93.02326746300002,52.506233226000006,GCS_North_American_1983_CSRS
599,Upper Similkameen,-120.07873353299999,49.35586303100001,GCS_North_American_1983_CSRS
146,Weenusk,-85.42101384099999,55.008780876,GCS_North_American_1983_CSRS
55,Conseil de la Première Nation Abitibiwinni,-78.12071968599997,48.59726819000002,GCS_North_American_1983_CSRS
197,Biinjitiwaabik Zaaging Anishinaabek,-88.129886677,49.436126220999995,GCS_North_American_1983_CSRS
14,Metepenagiag Mi'kmaq Nation,-65.82639810400002,46.94241593800001,GCS_North_American_1983_CSRS
586,Peters First Nation,-121.657945525,49.293865116999996,GCS_North_American_1983_CSRS
228,Brunswick House,-83.343050269,47.835798452999995,GCS_North_American_1983_CSRS
466,Kehewin Cree Nation,-110.85709437999998,54.11608844599999,GCS_North_American_1983_CSRS
58,Cree Nation of Chisasibi,-78.89639599999998,53.790666999999985,GCS_North_American_1983_CSRS
206,Wapekeka,-89.53875705899998,53.843864817999986,GCS_North_American_1983_CSRS
372,Whitecap Dakota Nation,-106.71202523,51.87665262500002,GCS_North_American_1983_CSRS
468,Fort McMurray #468 First Nation,-111.157463748,56.41352731699999,GCS_North_American_1983_CSRS
126,Couchiching First Nation,-93.35976920799999,48.63426851600002,GCS_North_American_1983_CSRS
649,Nanoose First Nation,-124.12801643799997,49.254063599999995,GCS_North_American_1983_CSRS
250,Lower Cayuga,-80.06110423400003,43.02767626999997,GCS_North_American_1983_CSRS
629,Mamalilikulla First Nation,-126.68232831400002,50.59424358000001,GCS_North_American_1983_CSRS
396,Makwa Sahgaiehcan First Nation,-109.165292534,54.02743022300001,GCS_North_American_1983_CSRS
185,Ginoogaming First Nation,-86.54424225999998,49.75792014899997,GCS_North_American_1983_CSRS
380,Nekaneet,-109.198160739,49.675163715,GCS_North_American_1983_CSRS
476,Loon River Cree,-115.39561099000002,56.535556199999974,GCS_North_American_1983_CSRS
161,Curve Lake,-78.37530686100001,44.462531619,GCS_North_American_1983_CSRS
567,Samahquam,-122.54109107199997,50.051308973000005,GCS_North_American_1983_CSRS
388,Wood Mountain,-106.44930744300001,49.335381133,GCS_North_American_1983_CSRS
761,K'atlodeeche First Nation,-115.754696271,60.83697196700001,GCS_North_American_1983_CSRS
768,Ka'a'gee Tu First Nation,-117.41668701200001,60.94000244099999,GCS_North_American_1983_CSRS
477,Tthebatthie Denesuliné Nation,-111.83949591200002,59.98863078400001,GCS_North_American_1983_CSRS
281,Skownan First Nation,-99.59829494600001,51.96862137699998,GCS_North_American_1983_CSRS
473,Bearspaw,-114.84628754800002,51.17001291999998,GCS_North_American_1983_CSRS
352,Hatchet Lake,-103.15756444499999,58.110963787,GCS_North_American_1983_CSRS
626,Kwakiutl,-127.410863646,50.69371064500001,GCS_North_American_1983_CSRS
342,Moosomin,-108.31650858900002,53.08272775500001,GCS_North_American_1983_CSRS
460,Beaver Lake Cree Nation,-111.90744417299999,54.68092453899999,GCS_North_American_1983_CSRS
624,K'ómoks First Nation,-124.95890381200002,49.67876869999998,GCS_North_American_1983_CSRS
547,Blueberry River First Nations,-121.11241319700002,56.70404079899998,GCS_North_American_1983_CSRS
570,Shxwhá:y Village,-121.98892360600001,49.16896980299998,GCS_North_American_1983_CSRS
87,La Nation Innu Matimekush-Lac John,-66.81399975199997,54.804513765000024,GCS_North_American_1983_CSRS
226,Mattagami,-81.52231999999998,47.79888,GCS_North_American_1983_CSRS
